{"type":"FeatureCollection","features":[{"type":"Feature","properties":{"city":"Corvallis","year":"2023-2023","project_number":1,"project_type":"Special","project_reports":"https://scholarsbank.uoregon.edu/xmlui/handle/1794/29049"},"geometry":{"type":"Point","coordinates":[-123.261221,44.5649219]}},{"type":"Feature","properties":{"city":"Dunes City","year":"2018-2019","project_number":1,"project_type":"Special","project_reports":"https://scholarsbank.uoregon.edu/xmlui/handle/1794/24623"},"geometry":{"type":"Point","coordinates":[-124.1154354,43.88329287]}},{"type":"Feature","properties":{"city":"Hood River","year":"2020-2020","project_number":1,"project_type":"Special","project_reports":"https://scholarsbank.uoregon.edu/xmlui/handle/1794/25400"},"geometry":{"type":"Point","coordinates":[-121.5122164,45.70878228]}},{"type":"Feature","properties":{"city":"Metro, Multnomah County, Troutdale, Gresham","year":"2014-2015","project_number":5,"project_type":"Special","project_reports":"https://scholarsbank.uoregon.edu/xmlui/handle/1794/22534"},"geometry":{"type":"Point","coordinates":[-122.4243067,45.5207087]}},{"type":"Feature","properties":{"city":"Springfield","year":"2018-2019","project_number":2,"project_type":"Special","project_reports":"https://scholarsbank.uoregon.edu/xmlui/handle/1794/24507"},"geometry":{"type":"Point","coordinates":[-123.0199561,44.04195026]}},{"type":"Feature","properties":{"city":"Tigard","year":"2022-2022","project_number":1,"project_type":"Special","project_reports":"https://scholarsbank.uoregon.edu/xmlui/handle/1794/28524"},"geometry":{"type":"Point","coordinates":[-122.7788537,45.42688401]}}]}